[['prod_name', 'price', 'store'], ['П/ф Свинина корейка н/к кат.А охл вес', '284,99', {'id': '0067', 'name': 'ул. Ленина, д. 132', 'address': 'ул. Ленина, д. 132', 'cityKey': 'alm', 'type': 'hypermarket', 'lat': 54.907765, 'long': 52.255366, 'opensAt': '8', 'closesAt': '23', 'image': None, 'is24hStore': False, 'hasPetShop': False}], ['Батон 365 ДНЕЙ Нарезной 1с нарезка', 'na', {'id': '0067', 'name': 'ул. Ленина, д. 132', 'address': 'ул. Ленина, д. 132', 'cityKey': 'alm', 'type': 'hypermarket', 'lat': 54.907765, 'long': 52.255366, 'opensAt': '8', 'closesAt': '23', 'image': None, 'is24hStore': False, 'hasPetShop': False}], ['Молоко ПРОСТОКВАШИНО паст. питьевое 2,5% ПЭТ', '54,99', {'id': '0067', 'name': 'ул. Ленина, д. 132', 'address': 'ул. Ленина, д. 132', 'cityKey': 'alm', 'type': 'hypermarket', 'lat': 54.907765, 'long': 52.255366, 'opensAt': '8', 'closesAt': '23', 'image': None, 'is24hStore': False, 'hasPetShop': False}], ['Грейпфруты вес', '141,69', {'id': '0067', 'name': 'ул. Ленина, д. 132', 'address': 'ул. Ленина, д. 132', 'cityKey': 'alm', 'type': 'hypermarket', 'lat': 54.907765, 'long': 52.255366, 'opensAt': '8', 'closesAt': '23', 'image': None, 'is24hStore': False, 'hasPetShop': False}], ['П/ф Свинина корейка н/к кат.А охл вес', '284,99', {'id': '0025', 'name': 'ул. Песчаная, д. 40/1', 'address': 'ул. Песчаная, д. 40/1', 'cityKey': 'arm', 'type': 'hypermarket', 'lat': 45.012522, 'long': 41.125326, 'opensAt': '0', 'closesAt': '0', 'image': None, 'is24hStore': True, 'hasPetShop': False}], ['Батон 365 ДНЕЙ Нарезной 1с нарезка', 'na', {'id': '0025', 'name': 'ул. Песчаная, д. 40/1', 'address': 'ул. Песчаная, д. 40/1', 'cityKey': 'arm', 'type': 'hypermarket', 'lat': 45.012522, 'long': 41.125326, 'opensAt': '0', 'closesAt': '0', 'image': None, 'is24hStore': True, 'hasPetShop': False}], ['Молоко ПРОСТОКВАШИНО паст. питьевое 2,5% ПЭТ', '54,99', {'id': '0025', 'name': 'ул. Песчаная, д. 40/1', 'address': 'ул. Песчаная, д. 40/1', 'cityKey': 'arm', 'type': 'hypermarket', 'lat': 45.012522, 'long': 41.125326, 'opensAt': '0', 'closesAt': '0', 'image': None, 'is24hStore': True, 'hasPetShop': False}], ['Грейпфруты вес', '119,89', {'id': '0025', 'name': 'ул. Песчаная, д. 40/1', 'address': 'ул. Песчаная, д. 40/1', 'cityKey': 'arm', 'type': 'hypermarket', 'lat': 45.012522, 'long': 41.125326, 'opensAt': '0', 'closesAt': '0', 'image': None, 'is24hStore': True, 'hasPetShop': False}], ['П/ф Свинина корейка н/к кат.А охл вес', '284,99', {'id': '0218', 'name': 'ул. Советская, д. 25', 'address': 'ул. Советская, д. 25', 'cityKey': 'arh', 'type': 'hypermarket', 'lat': 64.578926, 'long': 40.513533, 'opensAt': '9', 'closesAt': '23', 'image': None, 'is24hStore': True, 'hasPetShop': False}], ['Батон 365 ДНЕЙ Нарезной 1с нарезка', 'na', {'id': '0218', 'name': 'ул. Советская, д. 25', 'address': 'ул. Советская, д. 25', 'cityKey': 'arh', 'type': 'hypermarket', 'lat': 64.578926, 'long': 40.513533, 'opensAt': '9', 'closesAt': '23', 'image': None, 'is24hStore': True, 'hasPetShop': False}], ['Молоко ПРОСТОКВАШИНО паст. питьевое 2,5% ПЭТ', '54,99', {'id': '0218', 'name': 'ул. Советская, д. 25', 'address': 'ул. Советская, д. 25', 'cityKey': 'arh', 'type': 'hypermarket', 'lat': 64.578926, 'long': 40.513533, 'opensAt': '9', 'closesAt': '23', 'image': None, 'is24hStore': True, 'hasPetShop': False}], ['Грейпфруты вес', '117,79', {'id': '0218', 'name': 'ул. Советская, д. 25', 'address': 'ул. Советская, д. 25', 'cityKey': 'arh', 'type': 'hypermarket', 'lat': 64.578926, 'long': 40.513533, 'opensAt': '9', 'closesAt': '23', 'image': None, 'is24hStore': True, 'hasPetShop': False}], ['П/ф Свинина корейка н/к кат.А охл вес', '284,99', {'id': '0031', 'name': 'ул. Николая Островского, д. 146А', 'address': 'ул. Николая Островского, д. 146А', 'cityKey': 'ast', 'type': 'hypermarket', 'lat': 46.3339, 'long': 48.055706, 'opensAt': '0', 'closesAt': '0', 'image': None, 'is24hStore': True, 'hasPetShop': False}], ['Батон 365 ДНЕЙ Нарезной 1с нарезка', 'na', {'id': '0031', 'name': 'ул. Николая Островского, д. 146А', 'address': 'ул. Николая Островского, д. 146А', 'cityKey': 'ast', 'type': 'hypermarket', 'lat': 46.3339, 'long': 48.055706, 'opensAt': '0', 'closesAt': '0', 'image': None, 'is24hStore': True, 'hasPetShop': False}], ['Молоко ПРОСТОКВАШИНО паст. питьевое 2,5% ПЭТ', '54,99', {'id': '0031', 'name': 'ул. Николая Островского, д. 146А', 'address': 'ул. Николая Островского, д. 146А', 'cityKey': 'ast', 'type': 'hypermarket', 'lat': 46.3339, 'long': 48.055706, 'opensAt': '0', 'closesAt': '0', 'image': None, 'is24hStore': True, 'hasPetShop': False}], ['Грейпфруты вес', '108,99', {'id': '0031', 'name': 'ул. Николая Островского, д. 146А', 'address': 'ул. Николая Островского, д. 146А', 'cityKey': 'ast', 'type': 'hypermarket', 'lat': 46.3339, 'long': 48.055706, 'opensAt': '0', 'closesAt': '0', 'image': None, 'is24hStore': True, 'hasPetShop': False}], ['П/ф Свинина корейка н/к кат.А охл вес', '284,99', {'id': '0194', 'name': 'ул. Яблочкова, д. 2В', 'address': 'ул. Яблочкова, д. 2В', 'cityKey': 'ast', 'type': 'hypermarket', 'lat': 46.372993, 'long': 48.079685, 'opensAt': '0', 'closesAt': '0', 'image': None, 'is24hStore': True, 'hasPetShop': False}], ['Батон 365 ДНЕЙ Нарезной 1с нарезка', 'na', {'id': '0194', 'name': 'ул. Яблочкова, д. 2В', 'address': 'ул. Яблочкова, д. 2В', 'cityKey': 'ast', 'type': 'hypermarket', 'lat': 46.372993, 'long': 48.079685, 'opensAt': '0', 'closesAt': '0', 'image': None, 'is24hStore': True, 'hasPetShop': False}], ['Молоко ПРОСТОКВАШИНО паст. питьевое 2,5% ПЭТ', '54,99', {'id': '0194', 'name': 'ул. Яблочкова, д. 2В', 'address': 'ул. Яблочкова, д. 2В', 'cityKey': 'ast', 'type': 'hypermarket', 'lat': 46.372993, 'long': 48.079685, 'opensAt': '0', 'closesAt': '0', 'image': None, 'is24hStore': True, 'hasPetShop': False}], ['Грейпфруты вес', '108,99', {'id': '0194', 'name': 'ул. Яблочкова, д. 2В', 'address': 'ул. Яблочкова, д. 2В', 'cityKey': 'ast', 'type': 'hypermarket', 'lat': 46.372993, 'long': 48.079685, 'opensAt': '0', 'closesAt': '0', 'image': None, 'is24hStore': True, 'hasPetShop': False}]]